{
  "crs": {
    "type": "name", 
    "properties": {
      "name": "urn:ogc:def:crs:OGC:1.3:CRS84"
    }
  }, 
  "type": "FeatureCollection", 
  "features": [
    {
      "geometry": {
        "type": "Point", 
        "coordinates": [
          139.75512779999997, 
          35.7116784
        ]
      }, 
      "type": "Feature", 
      "properties": {
        "category": "パン", 
        "read": "あとりえ・ど・まぬびっしゅ", 
        "name": "アトリエ・ド・マヌビッシュ", 
        "phone": "03-5804-4242", 
        "address": "文京区西片1-2-2"
      }
    }, 
    {
      "geometry": {
        "type": "Point", 
        "coordinates": [
          139.76360750000003, 
          35.7202361
        ]
      }, 
      "type": "Feature", 
      "properties": {
        "category": "甘味", 
        "read": "かんみどころ いもじん", 
        "name": "甘味処 芋甚", 
        "phone": "03-3821-5530", 
        "address": "文京区根津2-30-4"
      }
    }, 
    {
      "geometry": {
        "type": "Point", 
        "coordinates": [
          139.77103520000003, 
          35.7089376
        ]
      }, 
      "type": "Feature", 
      "properties": {
        "category": "そば", 
        "read": "いけのはた やぶそば", 
        "name": "池の端 藪蕎麦", 
        "phone": "03-3831-8977", 
        "address": "文京区湯島3-44-7"
      }
    }, 
    {
      "geometry": {
        "type": "Point", 
        "coordinates": [
          139.75429459999998, 
          35.7115729
        ]
      }, 
      "type": "Feature", 
      "properties": {
        "category": "豆", 
        "read": "いしいいりまめてん", 
        "name": "石井いり豆店", 
        "phone": "03-3811-2457", 
        "address": "文京区西片1-2-7"
      }
    }, 
    {
      "geometry": {
        "type": "Point", 
        "coordinates": [
          139.73840670000004, 
          35.709295
        ]
      }, 
      "type": "Feature", 
      "properties": {
        "category": "うなぎ", 
        "read": "いしばし", 
        "name": "石ばし", 
        "phone": "03-3813-8038", 
        "address": "文京区水道2-4-29"
      }
    }, 
    {
      "geometry": {
        "type": "Point", 
        "coordinates": [
          139.77108250000003, 
          35.7078905
        ]
      }, 
      "type": "Feature", 
      "properties": {
        "category": "割烹", 
        "read": "いづまさ", 
        "name": "いづ政", 
        "phone": "03-3832-3210", 
        "address": "文京区湯島3-38-3"
      }
    }, 
    {
      "geometry": {
        "type": "Point", 
        "coordinates": [
          139.7708103, 
          35.70797659999999
        ]
      }, 
      "type": "Feature", 
      "properties": {
        "category": "居酒屋", 
        "read": "いわてやほんてん", 
        "name": "岩手屋本店", 
        "phone": "03-3836-9588", 
        "address": "文京区湯島3-38-8"
      }
    }, 
    {
      "geometry": {
        "type": "Point", 
        "coordinates": [
          139.77224079999996, 
          35.7074434
        ]
      }, 
      "type": "Feature", 
      "properties": {
        "category": "とんかつ", 
        "read": "うえの いせん ほんてん", 
        "name": "上野 井泉 本店", 
        "phone": "03-3834-2901", 
        "address": "文京区湯島3-40-3"
      }
    }, 
    {
      "geometry": {
        "type": "Point", 
        "coordinates": [
          139.74606130000006, 
          35.7243129
        ]
      }, 
      "type": "Feature", 
      "properties": {
        "category": "イタリア料理", 
        "read": "う゛ぉーろ・こずぃ", 
        "name": "ヴォーロ・コズィ", 
        "phone": "03-5319-3351", 
        "address": "文京区白山4-37-22"
      }
    }, 
    {
      "geometry": {
        "type": "Point", 
        "coordinates": [
          139.74369739999997, 
          35.7292929
        ]
      }, 
      "type": "Feature", 
      "properties": {
        "category": "和菓子", 
        "read": "えいせんどうおかの", 
        "name": "栄泉堂岡埜", 
        "phone": "03-3946-0141", 
        "address": "文京区本駒込6-2-1"
      }
    }, 
    {
      "geometry": {
        "type": "Point", 
        "coordinates": [
          139.7477589, 
          35.7096702
        ]
      }, 
      "type": "Feature", 
      "properties": {
        "category": "洋菓子", 
        "read": "えす・わいる", 
        "name": "エス・ワイル", 
        "phone": "03-3812-7520", 
        "address": "文京区春日1-12-6"
      }
    }, 
    {
      "geometry": {
        "type": "Point", 
        "coordinates": [
          139.76609669999993, 
          35.7071682
        ]
      }, 
      "type": "Feature", 
      "properties": {
        "category": "すき焼き", 
        "read": "えちかつ", 
        "name": "江知勝", 
        "phone": "03-3811-5293", 
        "address": "文京区湯島2-31-23"
      }
    }, 
    {
      "geometry": {
        "type": "Point", 
        "coordinates": [
          139.73245710000003, 
          35.7081894
        ]
      }, 
      "type": "Feature", 
      "properties": {
        "category": "たいやき", 
        "read": "えどがわばし なにわや", 
        "name": "江戸川ばし 浪花家", 
        "phone": "03-3268-6261", 
        "address": "文京区関口1-5-8"
      }
    }, 
    {
      "geometry": {
        "type": "Point", 
        "coordinates": [
          139.77176020000002, 
          35.7073739
        ]
      }, 
      "type": "Feature", 
      "properties": {
        "category": "和食", 
        "read": "えまてい", 
        "name": "絵馬亭", 
        "phone": "03-3836-2527", 
        "address": "文京区湯島3-39-3"
      }
    }, 
    {
      "geometry": {
        "type": "Point", 
        "coordinates": [
          139.7607693, 
          35.7080041
        ]
      }, 
      "type": "Feature", 
      "properties": {
        "category": "カレー", 
        "read": "おうふうかれー ほんごうぷてぃふ", 
        "name": "欧風カレー 本郷プティフ", 
        "phone": "03-3815-9408", 
        "address": "文京区本郷4-1-3"
      }
    }, 
    {
      "geometry": {
        "type": "Point", 
        "coordinates": [
          139.76964929999997, 
          35.7075239
        ]
      }, 
      "type": "Feature", 
      "properties": {
        "category": "洋食", 
        "read": "おうふうりょうり すいせん", 
        "name": "欧風料理 すいせん", 
        "phone": "03-3832-3737", 
        "address": "文京区湯島3-33-2"
      }
    }, 
    {
      "geometry": {
        "type": "Point", 
        "coordinates": [
          139.73923420000006, 
          35.7165026
        ]
      }, 
      "type": "Feature", 
      "properties": {
        "category": "和菓子", 
        "read": "おかしちょうしんじょ いっこうあん", 
        "name": "お菓子調進所 一幸庵", 
        "phone": "03-5684-6591", 
        "address": "文京区小石川5-3-15"
      }
    }, 
    {
      "geometry": {
        "type": "Point", 
        "coordinates": [
          139.75983589999998, 
          35.7103399
        ]
      }, 
      "type": "Feature", 
      "properties": {
        "category": "和菓子", 
        "read": "おかしどころ おおぎや", 
        "name": "御菓子処 扇屋", 
        "phone": "03-3811-1120", 
        "address": "文京区本郷5-26-5"
      }
    }, 
    {
      "geometry": {
        "type": "Point", 
        "coordinates": [
          139.76444130000004, 
          35.7053573
        ]
      }, 
      "type": "Feature", 
      "properties": {
        "category": "洋菓子", 
        "read": "おざわようがしてん", 
        "name": "オザワ洋菓子店", 
        "phone": "03-3815-9554", 
        "address": "文京区本郷3-22-9"
      }
    }, 
    {
      "geometry": {
        "type": "Point", 
        "coordinates": [
          139.76574970000001, 
          35.70188270000001
        ]
      }, 
      "type": "Feature", 
      "properties": {
        "category": "洋食", 
        "read": "おちゃのみず おがわけん", 
        "name": "御茶ノ水 小川軒", 
        "phone": "03-5802-5420", 
        "address": "文京区湯島1-9-3"
      }
    }, 
    {
      "geometry": {
        "type": "Point", 
        "coordinates": [
          139.75828290000004, 
          35.7207219
        ]
      }, 
      "type": "Feature", 
      "properties": {
        "category": "和菓子", 
        "read": "おんかしつかさ いちろあん", 
        "name": "御菓子司 一炉庵", 
        "phone": "03-3823-1365", 
        "address": "文京区向丘2-14-9"
      }
    }, 
    {
      "geometry": {
        "type": "Point", 
        "coordinates": [
          139.75556140000003, 
          35.7032128
        ]
      }, 
      "type": "Feature", 
      "properties": {
        "category": "とんかつ", 
        "read": "かつきち すいどうばしてん", 
        "name": "かつ吉 水道橋店", 
        "phone": "03-3812-6268", 
        "address": "文京区本郷1-4-1"
      }
    }, 
    {
      "geometry": {
        "type": "Point", 
        "coordinates": [
          139.7635553, 
          35.70571
        ]
      }, 
      "type": "Feature", 
      "properties": {
        "category": "うなぎ", 
        "read": "かばやき いしばしてい", 
        "name": "蒲焼 石橋亭", 
        "phone": "03-3811-3612", 
        "address": "文京区本郷3-24-3"
      }
    }, 
    {
      "geometry": {
        "type": "Point", 
        "coordinates": [
          139.77109640000003, 
          35.7080044
        ]
      }, 
      "type": "Feature", 
      "properties": {
        "category": "韓国料理", 
        "read": "がんそ ぶでちげ", 
        "name": "元祖 ブデチゲ", 
        "phone": "03-3834-4563", 
        "address": "文京区湯島3-38-11"
      }
    }, 
    {
      "geometry": {
        "type": "Point", 
        "coordinates": [
          139.7713519, 
          35.7073906
        ]
      }, 
      "type": "Feature", 
      "properties": {
        "category": "居酒屋", 
        "read": "きがんどう", 
        "name": "祈願堂", 
        "phone": "03-3837-0570", 
        "address": "文京区湯島3-37-2"
      }
    }, 
    {
      "geometry": {
        "type": "Point", 
        "coordinates": [
          139.76396840000007, 
          35.7247801
        ]
      }, 
      "type": "Feature", 
      "properties": {
        "category": "せんべい", 
        "read": "きくみせんべいそうほんてん", 
        "name": "菊見煎餅総本店", 
        "phone": "03-3821-1215", 
        "address": "文京区千駄木3-37-16"
      }
    }, 
    {
      "geometry": {
        "type": "Point", 
        "coordinates": [
          139.75936360000003, 
          35.7124924
        ]
      }, 
      "type": "Feature", 
      "properties": {
        "category": "喫茶", 
        "read": "きっさるおー", 
        "name": "喫茶ルオー", 
        "phone": "03-3811-1808", 
        "address": "文京区本郷6-1-14"
      }
    }, 
    {
      "geometry": {
        "type": "Point", 
        "coordinates": [
          139.75918879999995, 
          35.7088761
        ]
      }, 
      "type": "Feature", 
      "properties": {
        "category": "喫茶・レストラン", 
        "read": "きんぎょざか", 
        "name": "金魚坂", 
        "phone": "03-3815-7088", 
        "address": "文京区本郷5-3-15"
      }
    }, 
    {
      "geometry": {
        "type": "Point", 
        "coordinates": [
          139.76923540000007, 
          35.7075877
        ]
      }, 
      "type": "Feature", 
      "properties": {
        "category": "焼鳥・鳥料理", 
        "read": "くしやきどころ つた", 
        "name": "串焼処 つ多", 
        "phone": "03-3832-4663", 
        "address": "文京区湯島3-32-14"
      }
    }, 
    {
      "geometry": {
        "type": "Point", 
        "coordinates": [
          139.72857090000002, 
          35.7174939
        ]
      }, 
      "type": "Feature", 
      "properties": {
        "category": "和菓子", 
        "read": "ぐんりんどう", 
        "name": "群林堂", 
        "phone": "03-3941-8281", 
        "address": "文京区音羽2-1-2"
      }
    }, 
    {
      "geometry": {
        "type": "Point", 
        "coordinates": [
          139.77233660000002, 
          35.7079115
        ]
      }, 
      "type": "Feature", 
      "properties": {
        "category": "洋食", 
        "read": "げんせんようしょくさくらい", 
        "name": "厳選洋食さくらい", 
        "phone": "03-3836-9357", 
        "address": "文京区湯島3-40-7カスタムビル7・8F"
      }
    }, 
    {
      "geometry": {
        "type": "Point", 
        "coordinates": [
          139.72751540000002, 
          35.71978259999999
        ]
      }, 
      "type": "Feature", 
      "properties": {
        "category": "和菓子", 
        "read": "こうげつどう", 
        "name": "甲月堂", 
        "phone": "03-3941-4355", 
        "address": "文京区音羽2-10-1"
      }
    }, 
    {
      "geometry": {
        "type": "Point", 
        "coordinates": [
          139.76162210000007, 
          35.7033741
        ]
      }, 
      "type": "Feature", 
      "properties": {
        "category": "ラーメン", 
        "read": "こうやめんぼう", 
        "name": "こうや麺房", 
        "phone": "03-3818-5855", 
        "address": "文京区本郷2-10-8"
      }
    }, 
    {
      "geometry": {
        "type": "Point", 
        "coordinates": [
          139.75349700000004, 
          35.7230409
        ]
      }, 
      "type": "Feature", 
      "properties": {
        "category": "豆腐料理", 
        "read": "ごえもん", 
        "name": "五右ヱ門", 
        "phone": "03-3812-0900", 
        "address": "文京区本駒込1-1-26"
      }
    }, 
    {
      "geometry": {
        "type": "Point", 
        "coordinates": [
          139.75865010000007, 
          35.7030046
        ]
      }, 
      "type": "Feature", 
      "properties": {
        "category": "喫茶", 
        "read": "こーひーはうす おれごんるーむ", 
        "name": "コーヒーハウス オレゴンルーム", 
        "phone": "03-5800-3675", 
        "address": "文京区本郷2-4-4"
      }
    }, 
    {
      "geometry": {
        "type": "Point", 
        "coordinates": [
          139.77207969999995, 
          35.7074628
        ]
      }, 
      "type": "Feature", 
      "properties": {
        "category": "和食", 
        "read": "こしつだいにんぐ くう", 
        "name": "個室ダイニング 空", 
        "phone": "03-3837-4166", 
        "address": "文京区湯島3-39-15"
      }
    }, 
    {
      "geometry": {
        "type": "Point", 
        "coordinates": [
          139.77016030000004, 
          35.7075378
        ]
      }, 
      "type": "Feature", 
      "properties": {
        "category": "うなぎ", 
        "read": "こふく", 
        "name": "小福", 
        "phone": "03-3831-7683", 
        "address": "文京区湯島3-36-5"
      }
    }, 
    {
      "geometry": {
        "type": "Point", 
        "coordinates": [
          139.75449700000001, 
          35.7230104
        ]
      }, 
      "type": "Feature", 
      "properties": {
        "category": "そば", 
        "read": "さかなまち ちょうじゅあん", 
        "name": "肴町 長寿庵", 
        "phone": "03-3811-4813", 
        "address": "文京区向丘2-29-5"
      }
    }, 
    {
      "geometry": {
        "type": "Point", 
        "coordinates": [
          139.76256309999997, 
          35.7198944
        ]
      }, 
      "type": "Feature", 
      "properties": {
        "category": "うどん・ダイニングバー", 
        "read": "さぬきうどん ねのつ", 
        "name": "讃岐饂飩 根の津", 
        "phone": "03-3822-9015", 
        "address": "文京区根津1-23-16"
      }
    }, 
    {
      "geometry": {
        "type": "Point", 
        "coordinates": [
          139.7192106, 
          35.7156217
        ]
      }, 
      "type": "Feature", 
      "properties": {
        "category": "日本料理", 
        "read": "ざんまいしょう くら", 
        "name": "三昧匠 蔵", 
        "phone": "03-3945-2434", 
        "address": "文京区目白台1-17-1"
      }
    }, 
    {
      "geometry": {
        "type": "Point", 
        "coordinates": [
          139.75706630000002, 
          35.7195831
        ]
      }, 
      "type": "Feature", 
      "properties": {
        "category": "中華料理", 
        "read": "しゃんはいじゃーじゃんさい ぼーりーじゃー", 
        "name": "上海家郷菜 玻璃家", 
        "phone": "03-5834-1255", 
        "address": "文京区向丘2-11-8"
      }
    }, 
    {
      "geometry": {
        "type": "Point", 
        "coordinates": [
          139.7713824, 
          35.708796
        ]
      }, 
      "type": "Feature", 
      "properties": {
        "category": "鍋料理", 
        "read": "しゅんさいりょうり なべや", 
        "name": "旬菜料理 鍋家", 
        "phone": "03-3836-0459", 
        "address": "文京区湯島3-43-11"
      }
    }, 
    {
      "geometry": {
        "type": "Point", 
        "coordinates": [
          139.7415588, 
          35.7252655
        ]
      }, 
      "type": "Feature", 
      "properties": {
        "category": "そば", 
        "read": "しんかいや", 
        "name": "進開屋", 
        "phone": "03-3941-1307", 
        "address": "文京区千石2-30-6"
      }
    }, 
    {
      "geometry": {
        "type": "Point", 
        "coordinates": [
          139.76915199999996, 
          35.7081766
        ]
      }, 
      "type": "Feature", 
      "properties": {
        "category": "居酒屋", 
        "read": "しんすけ", 
        "name": "シンスケ", 
        "phone": "03-3832-0469", 
        "address": "文京区湯島3-31-5"
      }
    }, 
    {
      "geometry": {
        "type": "Point", 
        "coordinates": [
          139.7675911, 
          35.7064906
        ]
      }, 
      "type": "Feature", 
      "properties": {
        "category": "うどんすき", 
        "read": "すきうどん みつかわ", 
        "name": "すきうどん 満川", 
        "phone": "03-3831-5018", 
        "address": "文京区湯島2-26-1"
      }
    }, 
    {
      "geometry": {
        "type": "Point", 
        "coordinates": [
          139.7586, 
          35.7053015
        ]
      }, 
      "type": "Feature", 
      "properties": {
        "category": "すし", 
        "read": "すしすずき", 
        "name": "鮨すゞ木", 
        "phone": "03-3817-7711", 
        "address": "文京区本郷2-31-1"
      }
    }, 
    {
      "geometry": {
        "type": "Point", 
        "coordinates": [
          139.75227789999997, 
          35.7151918
        ]
      }, 
      "type": "Feature", 
      "properties": {
        "category": "焼肉", 
        "read": "すみびやきにく さつき", 
        "name": "炭火焼肉 皐月", 
        "phone": "03-3816-4122", 
        "address": "文京区白山1-1-2"
      }
    }, 
    {
      "geometry": {
        "type": "Point", 
        "coordinates": [
          139.75873860000002, 
          35.7147338
        ]
      }, 
      "type": "Feature", 
      "properties": {
        "category": "せんべい", 
        "read": "すみれどう", 
        "name": "すみれ堂", 
        "phone": "03-3811-5200", 
        "address": "文京区本郷6-25-14"
      }
    }, 
    {
      "geometry": {
        "type": "Point", 
        "coordinates": [
          139.72977660000004, 
          35.7119639
        ]
      }, 
      "type": "Feature", 
      "properties": {
        "category": "パン", 
        "read": "せきぐちふらんすぱん", 
        "name": "関口フランスパン", 
        "phone": "03-3943-1665", 
        "address": "文京区関口2-3-3"
      }
    }, 
    {
      "geometry": {
        "type": "Point", 
        "coordinates": [
          139.74203080000007, 
          35.7307844
        ]
      }, 
      "type": "Feature", 
      "properties": {
        "category": "ラーメン", 
        "read": "せんごくじまんらーめん すがもほんてん", 
        "name": "千石自慢らーめん 巣鴨本店", 
        "phone": "03-3944-0336", 
        "address": "文京区本駒込6-5-4"
      }
    }, 
    {
      "geometry": {
        "type": "Point", 
        "coordinates": [
          139.76053049999996, 
          35.7048211
        ]
      }, 
      "type": "Feature", 
      "properties": {
        "category": "そば", 
        "read": "そばきり もりの", 
        "name": "蕎麦切 森の", 
        "phone": "03-3818-9555", 
        "address": "文京区本郷2-25-1"
      }
    }, 
    {
      "geometry": {
        "type": "Point", 
        "coordinates": [
          139.76216020000004, 
          35.7252966
        ]
      }, 
      "type": "Feature", 
      "properties": {
        "category": "タコ料理", 
        "read": "たこや さんちゅう", 
        "name": "たこや 三忠", 
        "phone": "03-3824-2300", 
        "address": "文京区千駄木3-1-17"
      }
    }, 
    {
      "geometry": {
        "type": "Point", 
        "coordinates": [
          139.76319339999998, 
          35.7261243
        ]
      }, 
      "type": "Feature", 
      "properties": {
        "category": "中華料理", 
        "read": "ちゅうごくりょうり てんがいてん", 
        "name": "中国料理 天外天", 
        "phone": "03-3822-3333", 
        "address": "文京区千駄木3-33-12"
      }
    }, 
    {
      "geometry": {
        "type": "Point", 
        "coordinates": [
          139.76429959999996, 
          35.707332
        ]
      }, 
      "type": "Feature", 
      "properties": {
        "category": "和菓子", 
        "read": "つぼやそうほんてん", 
        "name": "壺屋總本店", 
        "phone": "03-3811-4645", 
        "address": "文京区本郷3-42-8"
      }
    }, 
    {
      "geometry": {
        "type": "Point", 
        "coordinates": [
          139.7701631, 
          35.70786
        ]
      }, 
      "type": "Feature", 
      "properties": {
        "category": "和菓子", 
        "read": "つるせ", 
        "name": "つる瀬", 
        "phone": "03-3833-8516", 
        "address": "文京区湯島3-35-7"
      }
    }, 
    {
      "geometry": {
        "type": "Point", 
        "coordinates": [
          139.7674495, 
          35.7050741
        ]
      }, 
      "type": "Feature", 
      "properties": {
        "category": "そば", 
        "read": "てうちこしきそば", 
        "name": "手打古式蕎麦", 
        "phone": "03-3836-5229", 
        "address": "文京区湯島3-20-5"
      }
    }, 
    {
      "geometry": {
        "type": "Point", 
        "coordinates": [
          139.76124149999998, 
          35.7071153
        ]
      }, 
      "type": "Feature", 
      "properties": {
        "category": "そば", 
        "read": "てうちそば たなべ", 
        "name": "手打そば 田奈部", 
        "phone": "03-3814-0218", 
        "address": "文京区本郷3-35-6"
      }
    }, 
    {
      "geometry": {
        "type": "Point", 
        "coordinates": [
          139.73193489999994, 
          35.7084421
        ]
      }, 
      "type": "Feature", 
      "properties": {
        "category": "せんべい", 
        "read": "てやきせんべいすみびやき きさく", 
        "name": "手焼せんべい炭火焼 喜作", 
        "phone": "03-3268-1121", 
        "address": "文京区関口1-7-2"
      }
    }, 
    {
      "geometry": {
        "type": "Point", 
        "coordinates": [
          139.77122410000004, 
          35.7083294
        ]
      }, 
      "type": "Feature", 
      "properties": {
        "category": "インド料理", 
        "read": "でりーうえのてん", 
        "name": "デリー上野店", 
        "phone": "03-3831-7311", 
        "address": "文京区湯島3-42-2"
      }
    }, 
    {
      "geometry": {
        "type": "Point", 
        "coordinates": [
          139.76755500000002, 
          35.7065628
        ]
      }, 
      "type": "Feature", 
      "properties": {
        "category": "天ぷら", 
        "read": "てんぷらてんしょう ゆしまてんほんかん", 
        "name": "てんぷら天庄 湯島店本館", 
        "phone": "03-3831-6571", 
        "address": "文京区湯島2-26-9"
      }
    }, 
    {
      "geometry": {
        "type": "Point", 
        "coordinates": [
          139.75541969999995, 
          35.7035433
        ]
      }, 
      "type": "Feature", 
      "properties": {
        "category": "イタリア料理", 
        "read": "とらっとりあ ら・るーちぇ", 
        "name": "トラットリア ラ・ルーチェ", 
        "phone": "03-3815-9899", 
        "address": "文京区本郷1-4-6"
      }
    }, 
    {
      "geometry": {
        "type": "Point", 
        "coordinates": [
          139.75027790000001, 
          35.7199357
        ]
      }, 
      "type": "Feature", 
      "properties": {
        "category": "焼鳥・釜飯", 
        "read": "とりちょう はくさんてん", 
        "name": "鳥兆 白山店", 
        "phone": "03-3814-9965", 
        "address": "文京区白山4-33-21"
      }
    }, 
    {
      "geometry": {
        "type": "Point", 
        "coordinates": [
          139.76811050000003, 
          35.7068517
        ]
      }, 
      "type": "Feature", 
      "properties": {
        "category": "鳥料理", 
        "read": "とりつね", 
        "name": "鳥つね", 
        "phone": "03-3831-2380", 
        "address": "文京区湯島3-29-3"
      }
    }, 
    {
      "geometry": {
        "type": "Point", 
        "coordinates": [
          139.77089920000003, 
          35.7077905
        ]
      }, 
      "type": "Feature", 
      "properties": {
        "category": "タイ料理", 
        "read": "とんかーお", 
        "name": "トンカーオ", 
        "phone": "03-3836-2850", 
        "address": "文京区湯島3-38-4"
      }
    }, 
    {
      "geometry": {
        "type": "Point", 
        "coordinates": [
          139.7625683, 
          35.7302322
        ]
      }, 
      "type": "Feature", 
      "properties": {
        "category": "フランス料理", 
        "read": "なんおうりょうり びすとろ さいさいてい", 
        "name": "南欧料理 ビストロ 西菜亭", 
        "phone": "03-5685-2032", 
        "address": "文京区千駄木3-50-15"
      }
    }, 
    {
      "geometry": {
        "type": "Point", 
        "coordinates": [
          139.7667712, 
          35.7181532
        ]
      }, 
      "type": "Feature", 
      "properties": {
        "category": "うどん", 
        "read": "ねづ かまちく", 
        "name": "根津 釜竹", 
        "phone": "03-5815-4675", 
        "address": "文京区根津2-14-18"
      }
    }, 
    {
      "geometry": {
        "type": "Point", 
        "coordinates": [
          139.7629826, 
          35.7198611
        ]
      }, 
      "type": "Feature", 
      "properties": {
        "category": "飴", 
        "read": "ねづきんたろうあめ", 
        "name": "根津金太郎飴", 
        "phone": "03-5685-3280", 
        "address": "文京区根津1-22-12"
      }
    }, 
    {
      "geometry": {
        "type": "Point", 
        "coordinates": [
          139.76252980000004, 
          35.72025
        ]
      }, 
      "type": "Feature", 
      "properties": {
        "category": "和菓子", 
        "read": "ねづのたいやき", 
        "name": "根津のたいやき", 
        "phone": "03-3823-6277", 
        "address": "文京区根津1-23-9-104"
      }
    }, 
    {
      "geometry": {
        "type": "Point", 
        "coordinates": [
          139.76252980000004, 
          35.72025
        ]
      }, 
      "type": "Feature", 
      "properties": {
        "category": "せんべい", 
        "read": "ねづやえがきせんべい", 
        "name": "根津八重垣煎餅", 
        "phone": "03-3828-7228", 
        "address": "文京区根津1-23-9-102"
      }
    }, 
    {
      "geometry": {
        "type": "Point", 
        "coordinates": [
          139.75766079999994, 
          35.7175084
        ]
      }, 
      "type": "Feature", 
      "properties": {
        "category": "おでん", 
        "read": "のんき", 
        "name": "呑喜", 
        "phone": "03-3811-4736", 
        "address": "文京区向丘1-20-6"
      }
    }, 
    {
      "geometry": {
        "type": "Point", 
        "coordinates": [
          139.73633180000002, 
          35.7093644
        ]
      }, 
      "type": "Feature", 
      "properties": {
        "category": "うなぎ", 
        "read": "はしもと", 
        "name": "はし本", 
        "phone": "03-3811-4850", 
        "address": "文京区水道2-5-7"
      }
    }, 
    {
      "geometry": {
        "type": "Point", 
        "coordinates": [
          139.76086369999996, 
          35.7076958
        ]
      }, 
      "type": "Feature", 
      "properties": {
        "category": "洋菓子", 
        "read": "ぱてぃすりー じゃんぬとろわ", 
        "name": "パティスリー ジャンヌトロワ", 
        "phone": "03-3811-3874", 
        "address": "文京区本郷4-1-1"
      }
    }, 
    {
      "geometry": {
        "type": "Point", 
        "coordinates": [
          139.736623, 
          35.7239212
        ]
      }, 
      "type": "Feature", 
      "properties": {
        "category": "洋菓子", 
        "read": "ぱてぃすりー ひやま", 
        "name": "Pâtisserie Hiyama", 
        "phone": "03-3945-3585", 
        "address": "文京区大塚4-1-11"
      }
    }, 
    {
      "geometry": {
        "type": "Point", 
        "coordinates": [
          139.7512335, 
          35.7176637
        ]
      }, 
      "type": "Feature", 
      "properties": {
        "category": "洋菓子", 
        "read": "ぱぱだにえる", 
        "name": "パパダニエル", 
        "phone": "03-3813-2518", 
        "address": "文京区白山2-29-6"
      }
    }, 
    {
      "geometry": {
        "type": "Point", 
        "coordinates": [
          139.76555740000003, 
          35.71784480000001
        ]
      }, 
      "type": "Feature", 
      "properties": {
        "category": "串揚げ", 
        "read": "はんてい ねづほんてん", 
        "name": "はん亭 根津本店", 
        "phone": "03-3828-1440", 
        "address": "文京区根津2-12-15"
      }
    }, 
    {
      "geometry": {
        "type": "Point", 
        "coordinates": [
          139.7695744, 
          35.7037659
        ]
      }, 
      "type": "Feature", 
      "properties": {
        "category": "イタリア料理", 
        "read": "びすとろ ぐらっそ", 
        "name": "ビストロ グラッソ", 
        "phone": "03-3835-1184", 
        "address": "文京区湯島3-9-11"
      }
    }, 
    {
      "geometry": {
        "type": "Point", 
        "coordinates": [
          139.77014359999998, 
          35.7080988
        ]
      }, 
      "type": "Feature", 
      "properties": {
        "category": "ステーキ", 
        "read": "びすとろ ゆしま たけうち", 
        "name": "美酒喰処 湯島 たけうち", 
        "phone": "03-3836-1398", 
        "address": "文京区湯島3-35-8"
      }
    }, 
    {
      "geometry": {
        "type": "Point", 
        "coordinates": [
          139.76086540000006, 
          35.7073729
        ]
      }, 
      "type": "Feature", 
      "properties": {
        "category": "和菓子", 
        "read": "ほんごう みはらどう", 
        "name": "本郷 三原堂", 
        "phone": "03-3811-4489", 
        "address": "文京区本郷3-34-5"
      }
    }, 
    {
      "geometry": {
        "type": "Point", 
        "coordinates": [
          139.75512779999997, 
          35.7116784
        ]
      }, 
      "type": "Feature", 
      "properties": {
        "category": "パイ", 
        "read": "まみーず", 
        "name": "マミーズ", 
        "phone": "03-3812-0042", 
        "address": "文京区西片1-2-2"
      }
    }, 
    {
      "geometry": {
        "type": "Point", 
        "coordinates": [
          139.76453579999998, 
          35.7046212
        ]
      }, 
      "type": "Feature", 
      "properties": {
        "category": "インド・ネパール料理", 
        "read": "まりか いんど・ねぱーるれすとらん", 
        "name": "MALIKA インド・ネパールレストラン", 
        "phone": "03-3814-3327", 
        "address": "文京区湯島2-11-7"
      }
    }, 
    {
      "geometry": {
        "type": "Point", 
        "coordinates": [
          139.75915529999997, 
          35.7130979
        ]
      }, 
      "type": "Feature", 
      "properties": {
        "category": "喫茶", 
        "read": "まんさだふるーつぱーらー", 
        "name": "万定フルーツパーラー", 
        "phone": "03-3812-2591", 
        "address": "文京区本郷6-17-1"
      }
    }, 
    {
      "geometry": {
        "type": "Point", 
        "coordinates": [
          139.77091859999996, 
          35.7079989
        ]
      }, 
      "type": "Feature", 
      "properties": {
        "category": "甘味", 
        "read": "みつばち", 
        "name": "みつばち", 
        "phone": "03-3831-3083", 
        "address": "文京区湯島3-38-10"
      }
    }, 
    {
      "geometry": {
        "type": "Point", 
        "coordinates": [
          139.75952770000004, 
          35.7076707
        ]
      }, 
      "type": "Feature", 
      "properties": {
        "category": "ベトナム料理", 
        "read": "みゅん ほんごうてん", 
        "name": "ミュン 本郷店", 
        "phone": "03-3815-1195", 
        "address": "文京区本郷4-2-8"
      }
    }, 
    {
      "geometry": {
        "type": "Point", 
        "coordinates": [
          139.75862729999994, 
          35.7204886
        ]
      }, 
      "type": "Feature", 
      "properties": {
        "category": "そば", 
        "read": "むきょうあん", 
        "name": "夢境庵", 
        "phone": "03-3815-4337", 
        "address": "文京区弥生1-6-4"
      }
    }, 
    {
      "geometry": {
        "type": "Point", 
        "coordinates": [
          139.7602832, 
          35.7079763
        ]
      }, 
      "type": "Feature", 
      "properties": {
        "category": "パン", 
        "read": "めいげつどう", 
        "name": "明月堂", 
        "phone": "03-3811-5539", 
        "address": "文京区本郷4-37-14"
      }
    }, 
    {
      "geometry": {
        "type": "Point", 
        "coordinates": [
          139.76243799999997, 
          35.7249189
        ]
      }, 
      "type": "Feature", 
      "properties": {
        "category": "焼鳥", 
        "read": "やきとり いまい", 
        "name": "焼鳥 今井", 
        "phone": "03-6904-7516", 
        "address": "文京区千駄木2-29-4"
      }
    }, 
    {
      "geometry": {
        "type": "Point", 
        "coordinates": [
          139.75349700000004, 
          35.7230409
        ]
      }, 
      "type": "Feature", 
      "properties": {
        "category": "焼肉", 
        "read": "やきにく りー くっく", 
        "name": "ＹＡＫＩＮＩＫＵ Lee Cook", 
        "phone": "03-5842-8699", 
        "address": "文京区本駒込1-1-26"
      }
    }, 
    {
      "geometry": {
        "type": "Point", 
        "coordinates": [
          139.76821599999994, 
          35.7069739
        ]
      }, 
      "type": "Feature", 
      "properties": {
        "category": "そば", 
        "read": "やぐら", 
        "name": "やぐ羅", 
        "phone": "03-3836-3900", 
        "address": "文京区湯島3-29-5"
      }
    }, 
    {
      "geometry": {
        "type": "Point", 
        "coordinates": [
          139.77066860000002, 
          35.7077489
        ]
      }, 
      "type": "Feature", 
      "properties": {
        "category": "日本料理", 
        "read": "ゆしま いちにいち", 
        "name": "湯島 一二一", 
        "phone": "03-5846-3510", 
        "address": "文京区湯島3-35-1"
      }
    }, 
    {
      "geometry": {
        "type": "Point", 
        "coordinates": [
          139.77165749999995, 
          35.70770720000001
        ]
      }, 
      "type": "Feature", 
      "properties": {
        "category": "かりんとう", 
        "read": "ゆしま かげつ", 
        "name": "ゆしま 花月", 
        "phone": "03-3831-9762", 
        "address": "文京区湯島3-39-6"
      }
    }, 
    {
      "geometry": {
        "type": "Point", 
        "coordinates": [
          139.77164360000006, 
          35.7079683
        ]
      }, 
      "type": "Feature", 
      "properties": {
        "category": "塩干魚", 
        "read": "ゆしま まるあか", 
        "name": "湯島 丸赤", 
        "phone": "03-3831-5701", 
        "address": "文京区湯島3－39－9"
      }
    }, 
    {
      "geometry": {
        "type": "Point", 
        "coordinates": [
          139.76915480000002, 
          35.7078377
        ]
      }, 
      "type": "Feature", 
      "properties": {
        "category": "すし", 
        "read": "ゆしまおんなざか きのした", 
        "name": "湯島女坂 季乃下", 
        "phone": "03-3831-2471", 
        "address": "文京区湯島3-32-12"
      }
    }, 
    {
      "geometry": {
        "type": "Point", 
        "coordinates": [
          139.74067579999996, 
          35.7161582
        ]
      }, 
      "type": "Feature", 
      "properties": {
        "category": "スペイン料理", 
        "read": "ら かんぱーな", 
        "name": "La Campana", 
        "phone": "03-5840-7721", 
        "address": "文京区小石川5-10-18"
      }
    }, 
    {
      "geometry": {
        "type": "Point", 
        "coordinates": [
          139.76938810000001, 
          35.708446
        ]
      }, 
      "type": "Feature", 
      "properties": {
        "category": "ラーメン", 
        "read": "らーめんてんじんしただいき", 
        "name": "らーめん天神下大喜", 
        "phone": "03-3834-0348", 
        "address": "文京区湯島3-47-2"
      }
    }, 
    {
      "geometry": {
        "type": "Point", 
        "coordinates": [
          139.7348819, 
          35.7099976
        ]
      }, 
      "type": "Feature", 
      "properties": {
        "category": "イタリア料理", 
        "read": "りすとらんて ら・ばりっく とうきょう", 
        "name": "リストランテ ラ・バリック トウキョウ", 
        "phone": "03-3943-4928", 
        "address": "文京区水道2-12-2"
      }
    }, 
    {
      "geometry": {
        "type": "Point", 
        "coordinates": [
          139.72853209999994, 
          35.7162663
        ]
      }, 
      "type": "Feature", 
      "properties": {
        "category": "ラーメン", 
        "read": "りゅめん ちゃぶや", 
        "name": "柳麺 ちゃぶ屋", 
        "phone": "03-3945-3791", 
        "address": "文京区音羽1-17-16"
      }
    }, 
    {
      "geometry": {
        "type": "Point", 
        "coordinates": [
          139.7259712, 
          35.7123527
        ]
      }, 
      "type": "Feature", 
      "properties": {
        "category": "会席料理", 
        "read": "りょうてい きんすい", 
        "name": "料亭 錦水", 
        "phone": "03-3943-5489", 
        "address": "文京区関口2-10-8椿山荘内"
      }
    }, 
    {
      "geometry": {
        "type": "Point", 
        "coordinates": [
          139.77142129999993, 
          35.7084488
        ]
      }, 
      "type": "Feature", 
      "properties": {
        "category": "洋菓子", 
        "read": "ろわぞー・ど・りよん", 
        "name": "ロワゾー・ド・リヨン", 
        "phone": "03-3831-9901", 
        "address": "文京区湯島3-42-12"
      }
    }, 
    {
      "geometry": {
        "type": "Point", 
        "coordinates": [
          139.76057489999994, 
          35.7055043
        ]
      }, 
      "type": "Feature", 
      "properties": {
        "category": "焼肉", 
        "read": "わぎゅういっとうやきにく てうちれいめん ぼうや", 
        "name": "和牛一頭焼肉 手打ち冷麺 房家", 
        "phone": "03-5840-9889", 
        "address": "文京区本郷2-26-8"
      }
    }
  ]
}